[{"A2":"VA","Name":"Vatican City","Longitude":12.4478,"Latitude":41.9},{"A2":"SM","Name":"San Marino","Longitude":12.4667,"Latitude":43.9172},{"A2":"LI","Name":"Vaduz","Longitude":9.5167,"Latitude":47.1337},{"A2":"LU","Name":"Luxembourg","Longitude":6.13,"Latitude":49.6117},{"A2":"FM","Name":"Palikir","Longitude":158.15,"Latitude":6.9166},{"A2":"MH","Name":"Majuro","Longitude":171.38,"Latitude":7.103},{"A2":"TV","Name":"Funafuti","Longitude":179.2166,"Latitude":-8.5167},{"A2":"PW","Name":"Melekeok","Longitude":134.6265,"Latitude":7.4874},{"A2":"MC","Name":"Monaco","Longitude":7.4069,"Latitude":43.7396},{"A2":"KI","Name":"Tarawa","Longitude":173.0176,"Latitude":1.3382},{"A2":"KM","Name":"Moroni","Longitude":43.2402,"Latitude":-11.7042},{"A2":"AD","Name":"Andorra","Longitude":1.5165,"Latitude":42.5},{"A2":"TT","Name":"Port-of-Spain","Longitude":-61.517,"Latitude":10.652},{"A2":"RW","Name":"Kigali","Longitude":30.0605,"Latitude":-1.9536},{"A2":"SZ","Name":"Mbabane","Longitude":31.1333,"Latitude":-26.3167},{"A2":"SI","Name":"Ljubljana","Longitude":14.515,"Latitude":46.0553},{"A2":"SK","Name":"Bratislava","Longitude":17.117,"Latitude":48.15},{"A2":"QA","Name":"Doha","Longitude":51.533,"Latitude":25.2866},{"A2":"ME","Name":"Podgorica","Longitude":19.2663,"Latitude":42.466},{"A2":"CH","Name":"Bern","Longitude":7.467,"Latitude":46.9167},{"A2":"XK","Name":"Pristina","Longitude":21.166,"Latitude":42.6667},{"A2":"DM","Name":"Roseau","Longitude":-61.387,"Latitude":15.301},{"A2":"DJ","Name":"Djibouti","Longitude":43.148,"Latitude":11.595},{"A2":"GM","Name":"Banjul","Longitude":-16.5917,"Latitude":13.4539},{"A2":"MK","Name":"Skopje","Longitude":21.4335,"Latitude":42},{"A2":"BB","Name":"Bridgetown","Longitude":-59.6165,"Latitude":13.102},{"A2":"BI","Name":"Bujumbura","Longitude":29.36,"Latitude":-3.3761},{"A2":"VC","Name":"Kingstown","Longitude":-61.2121,"Latitude":13.1483},{"A2":"LC","Name":"Castries","Longitude":-61,"Latitude":14.002},{"A2":"KN","Name":"Basseterre","Longitude":-62.717,"Latitude":17.302},{"A2":"MU","Name":"Port Louis","Longitude":57.5,"Latitude":-20.1666},{"A2":"GD","Name":"Saint George's","Longitude":-61.7416,"Latitude":12.0526},{"A2":"BH","Name":"Manama","Longitude":50.5831,"Latitude":26.2361},{"A2":"AG","Name":"Saint John's","Longitude":-61.85,"Latitude":17.118},{"A2":"UY","Name":"Montevideo","Longitude":-56.1711,"Latitude":-34.858},{"A2":"TG","Name":"Lomé","Longitude":1.2228,"Latitude":6.1319},{"A2":"TN","Name":"Tunis","Longitude":10.1797,"Latitude":36.8028},{"A2":"AE","Name":"Abu Dhabi","Longitude":54.3666,"Latitude":24.4667},{"A2":"TM","Name":"Ashgabat","Longitude":58.3833,"Latitude":37.95},{"A2":"ZM","Name":"Lusaka","Longitude":28.2833,"Latitude":-15.4166},{"A2":"ZW","Name":"Harare","Longitude":31.0447,"Latitude":-17.8178},{"A2":"TL","Name":"Dili","Longitude":125.5795,"Latitude":-8.5594},{"A2":"VU","Name":"Port Vila","Longitude":168.3166,"Latitude":-17.7334},{"A2":"HN","Name":"Tegucigalpa","Longitude":-87.2175,"Latitude":14.102},{"A2":"GY","Name":"Georgetown","Longitude":-58.167,"Latitude":6.802},{"A2":"IS","Name":"Reykjavík","Longitude":-21.95,"Latitude":64.15},{"A2":"HT","Name":"Port-au-Prince","Longitude":-72.336,"Latitude":18.541},{"A2":"UG","Name":"Kampala","Longitude":32.5833,"Latitude":0.3167},{"A2":"SR","Name":"Paramaribo","Longitude":-55.167,"Latitude":5.835},{"A2":"NE","Name":"Niamey","Longitude":2.1167,"Latitude":13.5167},{"A2":"TJ","Name":"Dushanbe","Longitude":68.7739,"Latitude":38.56},{"A2":"PY","Name":"Asunción","Longitude":-57.6415,"Latitude":-25.2964},{"A2":"NI","Name":"Managua","Longitude":-86.2685,"Latitude":12.153},{"A2":"SL","Name":"Freetown","Longitude":-13.2342,"Latitude":8.47},{"A2":"PK","Name":"Islamabad","Longitude":73.1666,"Latitude":33.7},{"A2":"NP","Name":"Kathmandu","Longitude":85.3166,"Latitude":27.7167},{"A2":"ZA","Name":"Bloemfontein","Longitude":26.2299,"Latitude":-29.12},{"A2":"ZA","Name":"Pretoria","Longitude":28.2294,"Latitude":-25.7069},{"A2":"PG","Name":"Port Moresby","Longitude":147.1925,"Latitude":-9.4647},{"A2":"SB","Name":"Honiara","Longitude":159.9498,"Latitude":-9.438},{"A2":"PA","Name":"Panama City","Longitude":-79.533,"Latitude":8.968},{"A2":"MA","Name":"Rabat","Longitude":-6.8361,"Latitude":34.0253},{"A2":"MD","Name":null,"Longitude":28.8577,"Latitude":47.005},{"A2":"MZ","Name":"Maputo","Longitude":32.5892,"Latitude":-25.9553},{"A2":"SO","Name":"Mogadishu","Longitude":45.3667,"Latitude":2.0667},{"A2":"OM","Name":"Muscat","Longitude":58.5933,"Latitude":23.6133},{"A2":"LK","Name":"Colombo","Longitude":79.8578,"Latitude":6.932},{"A2":"MN","Name":"Ulaanbaatar","Longitude":106.9166,"Latitude":47.9167},{"A2":"NA","Name":"Windhoek","Longitude":17.0835,"Latitude":-22.57},{"A2":"NG","Name":"Abuja","Longitude":7.5333,"Latitude":9.0833},{"A2":"GW","Name":"Bissau","Longitude":-15.5984,"Latitude":11.865},{"A2":"JO","Name":"Amman","Longitude":35.9333,"Latitude":31.95},{"A2":"LT","Name":"Vilnius","Longitude":25.3166,"Latitude":54.6834},{"A2":"LV","Name":"Riga","Longitude":24.1,"Latitude":56.95},{"A2":"KG","Name":"Bishkek","Longitude":74.5852,"Latitude":42.8731},{"A2":"LS","Name":"Maseru","Longitude":27.4833,"Latitude":-29.3167},{"A2":"MG","Name":"Antananarivo","Longitude":47.5166,"Latitude":-18.9166},{"A2":"EC","Name":"Quito","Longitude":-78.5001,"Latitude":-0.215},{"A2":"CR","Name":"San José","Longitude":-84.0841,"Latitude":9.935},{"A2":"SV","Name":"San Salvador","Longitude":-89.203,"Latitude":13.71},{"A2":"JM","Name":"Kingston","Longitude":-76.7674,"Latitude":17.9771},{"A2":"TD","Name":"Ndjamena","Longitude":15.0491,"Latitude":12.1131},{"A2":"GQ","Name":"Malabo","Longitude":8.7833,"Latitude":3.75},{"A2":"ER","Name":"Asmara","Longitude":38.9333,"Latitude":15.3333},{"A2":"HR","Name":"Zagreb","Longitude":16,"Latitude":45.8},{"A2":"EE","Name":"Tallinn","Longitude":24.728,"Latitude":59.4339},{"A2":"MW","Name":"Lilongwe","Longitude":33.7833,"Latitude":-13.9833},{"A2":"GT","Name":"Guatemala","Longitude":-90.527,"Latitude":14.6211},{"A2":"GA","Name":"Libreville","Longitude":9.458,"Latitude":0.3854},{"A2":"FJ","Name":"Suva","Longitude":178.4417,"Latitude":-18.133},{"A2":"MR","Name":"Nouakchott","Longitude":-15.9753,"Latitude":18.0864},{"A2":"ML","Name":"Bamako","Longitude":-8,"Latitude":12.65},{"A2":"LB","Name":"Beirut","Longitude":35.5097,"Latitude":33.872},{"A2":"GE","Name":"Tbilisi","Longitude":44.7908,"Latitude":41.725},{"A2":"KZ","Name":"Astana","Longitude":71.4278,"Latitude":51.1811},{"A2":"LA","Name":"Vientiane","Longitude":102.6,"Latitude":17.9667},{"A2":"CG","Name":"Brazzaville","Longitude":15.2847,"Latitude":-4.2592},{"A2":"GN","Name":"Conakry","Longitude":-13.6802,"Latitude":9.5315},{"A2":"CI","Name":"Yamoussoukro","Longitude":-5.2755,"Latitude":6.8184},{"A2":"CA","Name":"Ottawa","Longitude":-75.7,"Latitude":45.4167},{"A2":"RS","Name":"Belgrade","Longitude":20.468,"Latitude":44.8186},{"A2":"BN","Name":"Bandar Seri Begawan","Longitude":114.9333,"Latitude":4.8833},{"A2":"BO","Name":"Sucre","Longitude":-65.2595,"Latitude":-19.041},{"A2":"BZ","Name":"Belmopan","Longitude":-88.7671,"Latitude":17.252},{"A2":"CF","Name":"Bangui","Longitude":18.5583,"Latitude":4.3666},{"A2":"CM","Name":"Yaounde","Longitude":11.5167,"Latitude":3.8667},{"A2":"AL","Name":"Tirana","Longitude":19.8189,"Latitude":41.3275},{"A2":"AM","Name":"Yerevan","Longitude":44.5136,"Latitude":40.1812},{"A2":"AZ","Name":"Baku","Longitude":49.8622,"Latitude":40.3953},{"A2":"KH","Name":"Phnom Penh","Longitude":104.9166,"Latitude":11.55},{"A2":"BO","Name":"La Paz","Longitude":-68.15,"Latitude":-16.498},{"A2":"BJ","Name":"Cotonou","Longitude":2.52,"Latitude":6.4},{"A2":"BG","Name":"Sofia","Longitude":23.3167,"Latitude":42.6833},{"A2":"BY","Name":"Minsk","Longitude":27.5666,"Latitude":53.9},{"A2":"BT","Name":"Thimphu","Longitude":89.639,"Latitude":27.473},{"A2":"BW","Name":"Gaborone","Longitude":25.9119,"Latitude":-24.6463},{"A2":"AU","Name":"Canberra","Longitude":149.129,"Latitude":-35.283},{"A2":"BF","Name":"Ouagadougou","Longitude":-1.5247,"Latitude":12.3703},{"A2":"BA","Name":"Sarajevo","Longitude":18.383,"Latitude":43.85},{"A2":"MM","Name":"Naypyidaw","Longitude":96.1186,"Latitude":19.7666},{"A2":"BM","Name":"Hamilton","Longitude":-64.7839,"Latitude":32.2942},{"A2":"TO","Name":"Nukualofa","Longitude":-175.2206,"Latitude":-21.1385},{"A2":null,"Name":"Hargeysa","Longitude":44.0653,"Latitude":9.56},{"A2":"SC","Name":"Victoria","Longitude":55.45,"Latitude":-4.6166},{"A2":"ST","Name":"São Tomé","Longitude":6.7333,"Latitude":0.3334},{"A2":"WS","Name":"Apia","Longitude":-171.7386,"Latitude":-13.8415},{"A2":"MT","Name":"Valletta","Longitude":14.5147,"Latitude":35.8997},{"A2":"MV","Name":"Malé","Longitude":73.4999,"Latitude":4.1667},{"A2":"IL","Name":"Jerusalem","Longitude":35.2066,"Latitude":31.7784},{"A2":"CV","Name":"Praia","Longitude":-23.5167,"Latitude":14.9167},{"A2":"BS","Name":"Nassau","Longitude":-77.35,"Latitude":25.0834},{"A2":"CY","Name":"Nicosia","Longitude":33.3666,"Latitude":35.1667},{"A2":"NZ","Name":"Wellington","Longitude":174.7833,"Latitude":-41.3},{"A2":"VN","Name":"Hanoi","Longitude":105.85,"Latitude":21.0333},{"A2":"TR","Name":"Ankara","Longitude":32.8644,"Latitude":39.9272},{"A2":"HU","Name":"Budapest","Longitude":19.0833,"Latitude":47.5},{"A2":"YE","Name":"Sanaa","Longitude":44.2066,"Latitude":15.3547},{"A2":"RO","Name":"Bucharest","Longitude":26.0999,"Latitude":44.4334},{"A2":"SY","Name":"Damascus","Longitude":36.3,"Latitude":33.5},{"A2":"PT","Name":"Lisbon","Longitude":-9.1449,"Latitude":38.7227},{"A2":"SD","Name":"Khartoum","Longitude":32.5342,"Latitude":15.5881},{"A2":"NO","Name":"Oslo","Longitude":10.75,"Latitude":59.9167},{"A2":"PL","Name":"Warsaw","Longitude":21,"Latitude":52.25},{"A2":"KP","Name":"Pyongyang","Longitude":125.7547,"Latitude":39.0194},{"A2":"TZ","Name":"Dar es Salaam","Longitude":39.2683,"Latitude":-6.8},{"A2":"IE","Name":"Dublin","Longitude":-6.2489,"Latitude":53.3331},{"A2":"LR","Name":"Monrovia","Longitude":-10.8048,"Latitude":6.3106},{"A2":"MY","Name":"Kuala Lumpur","Longitude":101.7,"Latitude":3.1667},{"A2":"CU","Name":"Havana","Longitude":-82.3642,"Latitude":23.132},{"A2":"CZ","Name":"Prague","Longitude":14.466,"Latitude":50.0833},{"A2":"KW","Name":"Kuwait","Longitude":47.9783,"Latitude":29.3697},{"A2":"DO","Name":"Santo Domingo","Longitude":-69.9001,"Latitude":18.4701},{"A2":"GH","Name":"Accra","Longitude":-0.2167,"Latitude":5.55},{"A2":"LY","Name":"Tripoli","Longitude":13.18,"Latitude":32.8925},{"A2":"FI","Name":"Helsinki","Longitude":24.9341,"Latitude":60.1756},{"A2":"DK","Name":"København","Longitude":12.5635,"Latitude":55.6786},{"A2":"CI","Name":"Abidjan","Longitude":-4.04,"Latitude":5.32},{"A2":"BR","Name":"Brasília","Longitude":-47.9161,"Latitude":-15.7833},{"A2":"BE","Name":"Brussels","Longitude":4.3333,"Latitude":50.8333},{"A2":"BD","Name":"Dhaka","Longitude":90.4086,"Latitude":23.7231},{"A2":"AO","Name":"Luanda","Longitude":13.2344,"Latitude":-8.8383},{"A2":"DZ","Name":"Algiers","Longitude":3.0506,"Latitude":36.7631},{"A2":"VE","Name":"Caracas","Longitude":-66.917,"Latitude":10.501},{"A2":"UA","Name":"Kiev","Longitude":30.5166,"Latitude":50.4334},{"A2":"UZ","Name":"Tashkent","Longitude":69.2949,"Latitude":41.3117},{"A2":"ES","Name":"Madrid","Longitude":-3.6834,"Latitude":40.4},{"A2":"SE","Name":"Stockholm","Longitude":18.0973,"Latitude":59.3508},{"A2":"TH","Name":"Bangkok","Longitude":100.5166,"Latitude":13.75},{"A2":"PE","Name":"Lima","Longitude":-77.0501,"Latitude":-12.048},{"A2":"SN","Name":"Dakar","Longitude":-17.4731,"Latitude":14.7158},{"A2":"NL","Name":"Amsterdam","Longitude":4.9166,"Latitude":52.35},{"A2":"KR","Name":"Seoul","Longitude":126.9997,"Latitude":37.5663},{"A2":"PH","Name":"Manila","Longitude":120.9822,"Latitude":14.6042},{"A2":"DE","Name":"Berlin","Longitude":13.4015,"Latitude":52.5218},{"A2":"CD","Name":"Kinshasa","Longitude":15.315,"Latitude":-4.3297},{"A2":"IN","Name":"New Delhi","Longitude":77.2,"Latitude":28.6},{"A2":"GR","Name":"Athens","Longitude":23.7333,"Latitude":37.9833},{"A2":"IQ","Name":"Baghdad","Longitude":44.3939,"Latitude":33.3386},{"A2":"ET","Name":"Addis Ababa","Longitude":38.7,"Latitude":9.0333},{"A2":"IR","Name":"Tehran","Longitude":51.4243,"Latitude":35.6719},{"A2":"AR","Name":"Buenos Aires","Longitude":-58.3975,"Latitude":-34.6025},{"A2":"AF","Name":"Kabul","Longitude":69.1833,"Latitude":34.5167},{"A2":"AT","Name":"Vienna","Longitude":16.3666,"Latitude":48.2},{"A2":"TW","Name":"Taipei","Longitude":121.5683,"Latitude":25.0358},{"A2":"US","Name":"Washington, D.C.","Longitude":-77.0094,"Latitude":38.8995},{"A2":"GB","Name":"London","Longitude":-0.1167,"Latitude":51.5},{"A2":"SA","Name":"Riyadh","Longitude":46.7727,"Latitude":24.6408},{"A2":"ZA","Name":"Cape Town","Longitude":18.435,"Latitude":-33.92},{"A2":"RU","Name":"Moscow","Longitude":37.6155,"Latitude":55.7522},{"A2":"MX","Name":"Mexico City","Longitude":-99.131,"Latitude":19.4424},{"A2":"IT","Name":"Rome","Longitude":12.4833,"Latitude":41.896},{"A2":"CN","Name":"Beijing","Longitude":116.3883,"Latitude":39.9289},{"A2":"KE","Name":"Nairobi","Longitude":36.8167,"Latitude":-1.2833},{"A2":"ID","Name":"Jakarta","Longitude":106.8294,"Latitude":-6.1744},{"A2":"CO","Name":"Bogota","Longitude":-74.0833,"Latitude":4.5964},{"A2":"EG","Name":"Cairo","Longitude":31.25,"Latitude":30.05},{"A2":"JP","Name":"Tokyo","Longitude":139.7514,"Latitude":35.685},{"A2":"FR","Name":"Paris","Longitude":2.3333,"Latitude":48.8667},{"A2":"CL","Name":"Santiago","Longitude":-70.667,"Latitude":-33.45},{"A2":"SG","Name":"Singapore","Longitude":103.8558,"Latitude":1.293}]
